university,count,lat,lng,place_id,formatted_address
A.T. Still University,2,40.19314929999999,-92.58941430000002,ChIJf_GAq3AO6IcRl2uQjADaUr0,"800 W Jefferson St, Kirksville, MO 63501, USA"
Abilene Christian University,1,32.4700922,-99.7080103,ChIJiflo2s6RVoYRa7kIvLJ0ajs,"1600 Campus Ct, Abilene, TX 79601, USA"
Alabama A&M University,1,34.78384090000001,-86.5722237,ChIJ91htBQIXYogRtPsg4NGoNv0,"4900 Meridian St N, Huntsville, AL 35811, USA"
Alabama State University,1,32.3626319,-86.2934411,ChIJX03sJ6eBjogRdTBeMsda_SI,"915 S Jackson St, Montgomery, AL 36104, USA"
Alvernia University,1,40.3117414,-75.931795,ChIJL45OJ-9wxokRgiXuKHzepm8,"400 St Bernardine St, Reading, PA 19607, USA"
American Intercontinental University,4,33.2786939,-111.8040692,ChIJoceSxtqrK4cRzzBnHIASlGs,"2200 E Germann Rd Suite 100, Chandler, AZ 85286, USA"
American Sentinel University,5,39.6733289,-104.8700844,ChIJM3whFB2IbIcRpocOr4pXsKw,"10065 E Harvard Ave Suite 450, Denver, CO 80014, USA"
Amos Tuck School Dartmouth College,1,43.7055,-72.29416669999999,ChIJn0UVgcHJtEwRPrReEyKJkGQ,"100 Tuck Hall, Hanover, NH 03755, USA"
Argosy University,18,47.6139368,-122.3516557,ChIJ8WKlxVEVkFQRWk4AVvyTDZE,"2601 Elliott Ave, Seattle, WA 98121, USA"
Arizona State University,10,33.4229975,-111.9278306,ChIJD1QzO9sIK4cRMzA8R39xbmY,"1151 S Forest Ave, Tempe, AZ, USA"
Ashford University,1,33.301001,-111.8418139,ChIJv_pbJ5Bj4ocR3zbG3wAPr7M,"180 S Arizona Ave Suite #301, Chandler, AZ 85225, USA"
Aspen University,1,33.41204099999999,-111.981411,ChIJFdXNf6FzK4cR3xgY0UW5zgo,"4615 E Elwood St Suite 100, Phoenix, AZ 85040, USA"
Auburn University,5,32.5980549,-85.4942667,ChIJryBmEQvzjIgR9xLXUVxSkOw,"Auburn, AL 36849, USA"
Augustana College,1,41.5030042,-90.5513921,ChIJA2HcF10OCYgRe9wwwIbyKjY,"639 38th St, Rock Island, IL 61201, USA"
Baker College,1,42.9978049,-84.1766358,ChIJlwZ1UPgAI4gRdlSM3tQzqwE,"Owosso, MI 48867, USA"
Ball State University,1,40.2024944,-85.40582409999999,ChIJIR58aWY9FYgR9ImfGJvu4OQ,"2000 W University Ave, Muncie, IN 47306, USA"
Barry University,3,25.8789241,-80.19817929999999,ChIJEfyg7-2x2YgRoVV1iIOh6H0,"11300 NE 2nd Ave, Miami Shores, FL 33168, USA"
Baylor University,3,31.5500848,-97.11354,ChIJkebHSWqCT4YR3df3-lbTamM,"1311 S 5th St, Waco, TX 76706, USA"
Bellevue University,1,41.150572,-95.91815799999999,ChIJf4DKhmqIk4cR63XRQHKFjoM,"1000 Galvin Rd S, Bellevue, NE 68005, USA"
Benedictine University,1,41.7784418,-88.0952683,ChIJG3Tr6y5XDogRByHsaa54X1k,"5700 College Rd, Lisle, IL 60532, USA"
Bethel University,1,45.0582445,-93.1621869,ChIJb1zMgxAps1IRVrJzfICGzvQ,"3900 Bethel Dr, St Paul, MN 55112, USA"
Binghamton University,1,42.09712040000001,-75.9116546,ChIJ0bet33Lv2okRfzPt9wOXjwY,"Binghamton, NY, USA"
Boston College,2,42.3355488,-71.16849450000001,ChIJydQlp11444kRbuu4pZCuaAs,"140 Commonwealth Ave, Chestnut Hill, MA 02467, USA"
Boston University,1,42.3504997,-71.1053991,ChIJFzjlY_B544kRyL6j4ABuNCs,"Commonwealth Ave, Boston, MA 02215, USA"
Bowling Green State University,3,41.37969270000001,-83.63005919999999,ChIJ4Tqo5VAKPIgRAzVTIC9tuCY,"1001 E Wooster St, Bowling Green, OH 43403, USA"
Brigham Young University,5,40.2518435,-111.6493156,ChIJjbagSryQTYcRTNwP86OzPr8,"Provo, UT 84602, USA"
Brigham Young University - Idaho,1,43.8144643,-111.783255,ChIJz6VI3AMLVFMREvSOw9M0VR4,"101 E Viking St, Rexburg, ID 83460, USA"
Bryan University,1,33.4377518,-111.9446382,ChIJo489sTEJK4cRKGNfANfVbps,"350 W Washington St, Tempe, AZ 85288, USA"
Cal State University Monterey Bay,1,36.6537241,-121.7982492,ChIJMRU2N6_8jYARkQ437gqUOVA,"6013 General Jim Moore Blvd, Marina, CA 93933, USA"
California Institute of Integral Studies,1,37.7746792,-122.4164229,ChIJYznjup2AhYARWWixfhCj6IA,"1453 Mission St, San Francisco, CA 94103, USA"
California Southern University,4,33.278674,-111.8040389,ChIJKdo78OHc3IARMCASwLlDHB8,"2200 E Germann Rd Suite 120, Chandler, AZ 85286, USA"
California State University - East Bay,1,37.6560295,-122.0561984,ChIJD8tmKoqTj4ARNCkA6ahSj24,"25800 Carlos Bee Blvd, Hayward, CA 94542, USA"
California State University Fullerton,1,33.8823476,-117.8851033,ChIJkRPGjM7V3IARVfNKubsQmCs,"800 N State College Blvd, Fullerton, CA 92831, USA"
California State University San Marcos,1,33.1298249,-117.1586856,ChIJk6I2-FT124AR5FvcH4sXyVU,"333 S Twin Oaks Valley Rd, San Marcos, CA 92096, USA"
Capella University,70,44.976168,-93.26858089999999,ChIJC8ureJkys1IRbSZTl261_XY,"225 South 6th St, Minneapolis, MN 55402, USA"
Capitol College,2,39.0468887,-76.8503664,ChIJlYO-_erCt4kRZbZdVqfARJY,"11301 Springfield Rd, Laurel, MD 20708, USA"
Capitol Technology University,2,39.0468887,-76.8503664,ChIJlYO-_erCt4kRZbZdVqfARJY,"11301 Springfield Rd, Laurel, MD 20708, USA"
Carroll College,1,46.60073690000001,-112.0386887,ChIJqS9LjORUQ1MRYgN_IP7ofE0,"1601 N Benton Ave, Helena, MT 59625, USA"
Case Western Reserve University,2,41.5043413,-81.6083838,ChIJLRJYNon7MIgRkQuwe-BpkHE,"10900 Euclid Ave, Cleveland, OH 44106, USA"
Central Michigan University,4,43.5822124,-84.77625739999999,ChIJ7aQjxrMEIogRHzx5Xh86xMM,"1200 S Franklin St, Mt Pleasant, MI 48859, USA"
Chamberlain College of Nursing,2,41.880818,-87.64076999999999,ChIJFcxD_vlNDogR_akATgW62k8,"500 W Monroe St Suite 28, Chicago, IL 60661, USA"
Chamberlain University,4,41.880818,-87.64076999999999,ChIJFcxD_vlNDogR_akATgW62k8,"500 W Monroe St Suite 28, Chicago, IL 60661, USA"
Champlain College,1,44.4731165,-73.2041352,ChIJDavHSVd6ykwR2N8anIoJn6A,"163 S Willard St, Burlington, VT 05401, USA"
Chatham University,2,40.44820319999999,-79.9242853,ChIJtRafPAbyNIgR1PXf5djjCWE,"107 Woodland Rd, Pittsburgh, PA 15232, USA"
Chicago School of Professional Psychology,2,41.8881532,-87.63371020000001,ChIJDSHRKLcsDogRDnZ718cjemM,"325 N Wells St, Chicago, IL 60654, USA"
City University of New York,1,40.7127753,-74.0059728,ChIJOwg_06VPwokRYv534QaPC8g,"New York, NY, USA"
City University of Seattle,2,47.6175471,-122.3444142,ChIJ46RZ6-Z5CEERdWyyUxMqxPU,"521 Wall St #100, Seattle, WA 98121, USA"
Claremont Graduate University,2,34.1037145,-117.7118732,ChIJ9QDDh7gxw4AREk_Gz4kNedQ,"150 E 10th St, Claremont, CA 91711, USA"
Clark Atlanta University,4,33.7515658,-84.4112315,ChIJAQAwoWgD9YgRyOk3ZYffE3U,"223 James P Brawley Dr SW, Atlanta, GA 30314, USA"
Cleveland State University,2,41.5027643,-81.67442299999999,ChIJ4YtfzWP6MIgRbq3SEWa5qQs,"2121 Euclid Ave, Cleveland, OH 44115, USA"
College of Saint Scholastica,1,46.8157787,-92.10080430000001,ChIJtwjn9kWtr1IRZHVcS9u8rqQ,"1200 Kenwood Ave, Duluth, MN 55811, USA"
College of Santa Fe,1,35.6569559,-105.9775895,ChIJhfCekXtaGIcRkie_MhDNKb0,"1600 St Michaels Dr, Santa Fe, NM 87505, USA"
College of St. Scholastica,1,46.8157787,-92.10080430000001,ChIJtwjn9kWtr1IRZHVcS9u8rqQ,"1200 Kenwood Ave, Duluth, MN 55811, USA"
College of William and Mary,1,37.2709753,-76.7162467,ChIJMWOHJcN4sIkRte0qJwGuwco,"200 Stadium Dr, Williamsburg, VA 23185, USA"
Colorado State University,3,40.5729432,-105.0848391,ChIJqZvW7DNKaYcRES8-ClBS0kU,"Fort Collins, CO 80523, USA"
Colorado Technical University,9,38.8953987,-104.8572215,ChIJ99Rks9pPE4cR4ebfGQX6VZA,"1575 Garden of the Gods Rd Suite 100, Colorado Springs, CO 80907, USA"
Columbia Southern University,2,30.3292725,-87.6532483,ChIJAe-K4nsPmogRFQz9hkNEpAs,"21982 University Ln, Orange Beach, AL 36561, USA"
Columbia University,1,40.8075355,-73.9625727,ChIJyQ3Tlj72wokRUCflR_kzeVc,"116th and Broadway, New York, NY 10027, USA"
Concordia University,2,45.4948363,-73.5779128,ChIJOdZtY2oayUwR8CdYQcbKhZ4,"1455 Blvd. De Maisonneuve Ouest, Montreal, QC H3G 1M8, Canada"
Concordia University - Portland,1,45.515232,-122.6783853,ChIJJ3SpfQsLlVQRkYXR9ua5Nhw,"Portland, OR, USA"
Concordia University Texas,1,30.4210274,-97.8361609,ChIJi5tGjq8zW4YRKrCsfVBtUgQ,"11400 Concordia University Dr, Austin, TX 78726, USA"
Converse College,1,34.9560481,-81.91890389999999,ChIJ5ZyFMIV1V4gR9kHnsnMjGtI,"580 E Main St, Spartanburg, SC 29302, USA"
Courtauld Institute of Art,1,51.5301616,-0.1146483,ChIJw6RBJUcbdkgRaBLln6Z02us,"Vernon Square, Penton Rise, London WC1X 9EW, UK"
Dakota State University,1,44.0126125,-97.1103618,ChIJpw6OKrriiIcRabb1p57J0Tc,"820 Washington Ave N, Madison, SD 57042, USA"
DePaul University,1,41.9241868,-87.65416549999999,ChIJM7hiwRzTD4gRgOBQobltwRk,"2400 N Sheffield Ave, Chicago, IL 60614, USA"
DeVry University,4,41.8070382,-88.116554,ChIJqXtAn-f4DogR1s4BKIU1x9w,"4225 Naperville Rd, Lisle, IL 60532, USA"
Delaware State University,1,39.1859284,-75.543368,ChIJa0P8UTp7x4kRV10YW_t9SbU,"1200 N Dupont Hwy, Dover, DE 19901, USA"
Drew University,1,40.7602397,-74.4266389,ChIJn-WdVuqlw4kRObRa2ReNGbA,"36 Madison Ave, Madison, NJ 07940, USA"
Drexel University,3,39.9566127,-75.18994409999999,ChIJKcBHSE7GxokR8DA8BOQt8w4,"3141 Chestnut St, Philadelphia, PA 19104, USA"
Dublin City University,1,53.38533169999999,-6.2588403,ChIJA12dLxsOZ0gRqMIHQZhFuxI,"Dublin City University, Collins Ave Ext, Whitehall, Dublin 9, Ireland"
Duke University,1,36.0014258,-78.9382286,ChIJfzLrAbLmrIkRjaMc7lUWH7I,"Durham, NC 27708, USA"
Duke University School of Law,1,35.999854,-78.9452884,ChIJHbxnBbrmrIkRrkwPRXO7LT4,"210 Science Dr, Durham, NC 27708, USA"
Duquesne University,2,40.4369485,-79.99025759999999,ChIJa3PD-1vxNIgRZWumPoCHiMk,"600 Forbes Ave, Pittsburgh, PA 15282, USA"
ECPI University,1,36.8425384,-76.178872,ChIJq6qqqpaVuokRGNK2aXYqj9o,"5555 Greenwich Rd, Virginia Beach, VA 23462, USA"
East Carolina University,1,35.6068806,-77.3665364,ChIJBxZ44pbnrokRO6nNpGL-N1I,"E 5th St, Greenville, NC 27858, USA"
East Tennessee State University,2,36.3023954,-82.36985299999999,ChIJ_ROfXcB8WogR8Qm-Esy7eq0,"1276 Gilbreath Dr, Johnson City, TN 37614, USA"
Eastern Kentucky University,2,37.7386943,-84.2999687,ChIJWe7_HLj9QogREpCajOKZedw,"521 Lancaster Ave, Richmond, KY 40475, USA"
Emory University,2,33.7973735,-84.3252791,ChIJHU-KgPcG9YgRVZzdN2J61Vg,"201 Dowman Dr, Atlanta, GA 30322, USA"
Fielding Graduate University,1,34.42927590000001,-119.7174748,ChIJQzN8KJIU6YAR71fA3_BBj9w,"2020 De La Vina St, Santa Barbara, CA 93105, USA"
Florida Atlantic University,4,26.3737473,-80.10190229999999,ChIJaar4MwMe2YgRavv1IqE-BFI,"777 Glades Rd, Boca Raton, FL 33431, USA"
Florida Institute of Technology,5,28.0639632,-80.621455,ChIJ96ZS_AQS3ogRFT9qXWNXujc,"Florida Institute of Technology, 150 W University Blvd, Melbourne, FL 32901, USA"
Florida International University,2,25.7562465,-80.3755401,ChIJD95PQS6_2YgR8JJr-8eaRq4,"11200 SW 8th St, Miami, FL 33199, USA"
Florida State University,1,30.442087,-84.2979579,ChIJ0x3yeHD17IgRyIZdf-4PG5w,"222 S Copeland St, Tallahassee, FL 32306, USA"
Fontbonne University,1,38.641545,-90.315891,ChIJ4a6r07nK2IcRIUrwZfdC-Qc,"6800 Wydown Blvd, St. Louis, MO 63105, USA"
Fordham University,1,40.8614567,-73.8852771,ChIJkcCAUX7zwokR-D7XXkTPxTk,"Bronx, NY 10458, USA"
Franklin University,2,39.9583587,-82.99034069999999,ChIJoZPQacuIOIgRASBiQHEG4-o,"201 S Grant Ave, Columbus, OH 43215, USA"
Friends University,1,37.6777089,-97.3666702,ChIJV-zLPUThuocR6WXVmIujFdg,"2100 W Univ Ave, Wichita, KS 67213, USA"
Frostburg State University,1,39.6498754,-78.9345609,ChIJrQ2T0i2XyokRJfVYT_a3dAw,"101 Braddock Rd, Frostburg, MD 21532, USA"
Gardner Webb University,1,35.2475249,-81.6706979,ChIJJRhWMDgYV4gRK0Xp_T10Ms8,"110 S Main St, Boiling Springs, NC 28017, USA"
Gardner-Webb University,1,35.2475249,-81.6706979,ChIJJRhWMDgYV4gRK0Xp_T10Ms8,"110 S Main St, Boiling Springs, NC 28017, USA"
George Fox University,1,45.3027486,-122.9704832,ChIJFdIbDn9qlVQRgyFF5Akv0l8,"414 N Meridian St, Newberg, OR 97132, USA"
George Mason University,3,38.8346287,-77.3060567,ChIJvX5Ce2BOtokRRHVV5lOmZtc,"4400 University Dr, Fairfax, VA 22030, USA"
George Washington University,5,38.8997145,-77.0485992,ChIJpXo8DrG3t4kRCKgn3Bv0e9o,"2121 I St NW, Washington, DC 20052, USA"
Georgia Institute of Technology,1,33.7779791,-84.3979638,ChIJ40_D64oE9YgRD8XYOj7QKrU,"Atlanta, GA 30332, USA"
Georgia Southern University,1,32.4206845,-81.7869734,ChIJH5neYdFA-ogRtExwVK1ETn8,"1332 Southern Dr, Statesboro, GA 30458, USA"
Georgia State University,2,33.753068,-84.38528190000001,ChIJueHvE4YD9YgRl25c4JufwUo,"Atlanta, GA 30302, USA"
Gonzaga University,1,47.6658548,-117.4021153,ChIJ--96u-sYnlQR5we5eRYNFts,"502 E Boone Ave, Spokane, WA 99258, USA"
Graceland University,1,40.61636379999999,-93.9263079,ChIJQ1YSZ5jN64cRknr5D7g_H4w,"1 University Pl, Lamoni, IA 50140, USA"
Grambling State University,1,32.5197213,-92.7179736,ChIJQW8xPRjGMYYRSXbCKl2h-iE,"403 Main St, Grambling, LA 71245, USA"
Grand Canyon University,13,33.5100339,-112.1288588,ChIJj7t3FE4TK4cRtSGUMLC_z84,"3300 W Camelback Rd, Phoenix, AZ 85017, USA"
Gwynedd Mercy University,2,40.1979262,-75.2368884,ChIJk_AnaIGexokRxCCxGofH2UI,"1325 Sumneytown Pike, Gwynedd Valley, PA 19437, USA"
Hope Bible Institute and Seminary,1,30.4514677,-91.18714659999999,ChIJy3RfMmc4JIYRHZpXkdvxIyE,"Baton Rouge, LA, USA"
Howard University,1,38.9226843,-77.0194377,ChIJ-c60Vvy3t4kRwnfbyB_H3DI,"2400 6th St NW, Washington, DC 20059, USA"
Illinois State University,2,40.5121009,-88.99476299999999,ChIJc7x4lHFxC4gRNCy2X17B5RA,"100 N University St, Normal, IL 61761, USA"
Indian Institute of Technology Bombay,1,19.1330605,72.9151061,ChIJOcDvifHH5zsRTonFxaTO_Wg,"Main Gate Rd, IIT Area, Powai, Mumbai, Maharashtra 400076, India"
Indiana State University,1,39.4713985,-87.40828069999999,ChIJQ6w2DTplbYgReJ_3x_lCBPM,"200 N 7th St, Terre Haute, IN 47809, USA"
Indiana University,7,39.1682449,-86.52300729999999,ChIJM62JZ8JmbIgRNtQVs4ugmTQ,"107 S Indiana Ave, Bloomington, IN 47405, USA"
Indiana University Bloomington,1,39.1682449,-86.52300729999999,ChIJM62JZ8JmbIgRNtQVs4ugmTQ,"107 S Indiana Ave, Bloomington, IN 47405, USA"
Indiana University of Pennsylvania,1,40.6143979,-79.1610224,ChIJUZyi8NNay4kRpJbUVvTvUp0,"1011 South Drive, Indiana, PA 15705, USA"
Indiana University-Purdue University Indianapolis,1,39.773929,-86.17626059999999,ChIJiwAfRjVXa4gRHjfMlbaZJro,"420 University Blvd, Indianapolis, IN 46202, USA"
Indiana Wesleyan University,4,40.51802139999999,-85.6625813,ChIJa5FVZ9b-FIgRpHOciL4M6Gs,"4201 S Washington St, Marion, IN 46953, USA"
Institute for Doctoral Studies in the Visual Arts,1,43.66142860000001,-70.25175109999999,ChIJ__9LSw6cskwRA8kb50nVDIQ,"96 India St, Portland, ME 04101, USA"
Iona College,1,40.9270597,-73.78634939999999,ChIJvQxst4CNwokRBWezHdgNrxM,"715 North Ave, New Rochelle, NY 10804, USA"
Iowa State University,1,42.0266573,-93.64645159999999,ChIJGVshXgp67ocR6Els7jrt2Nc,"Ames, IA 50011, USA"
Jackson State University,3,32.2968882,-90.2063989,ChIJm_XHtJczKIYRr3zkCgBNSPs,"1400 John R. Lynch St, Jackson, MS 39217, USA"
Johnson University,1,35.9361748,-83.7508469,ChIJDwRSR_APXIgRI78JYVuqQKk,"7900 Johnson Dr, Knoxville, TN 37998, USA"
Kansas State University,1,39.1974437,-96.5847249,ChIJSXQyV43NvYcRdRt537z5Zg0,"Manhattan, KS 66506, USA"
Kaplan University,3,41.5237912,-90.57658699999999,ChIJ8aIS4MU04ocRsB9YVmMf6ug,"Davenport, IA, USA"
Keiser University,4,26.1861474,-80.1648944,ChIJNXLIS90D2YgR9nghBb-dy90,"1500 NW 49th St, Fort Lauderdale, FL 33309, USA"
Kennesaw State University,2,34.0380784,-84.5815717,ChIJU-VAr9Jq9YgR0MgJ0smjln8,"1000 Chastain Rd NW, Kennesaw, GA 30144, USA"
Kent State University,6,41.1438917,-81.3365012,ChIJeWbarto6MYgRM8S8HJDz2d0,"800 E Summit St, Kent, OH 44240, USA"
King College,1,36.5869972,-82.15945119999999,ChIJrZOAO-t2UIgRYy0oQhpSBKU,"1350 King College Rd, Bristol, TN 37620, USA"
LaSalle University,1,40.0390398,-75.1558184,ChIJi-rtryq4xokRsvHYupH2zMM,"1900 W Olney Ave, Philadelphia, PA 19141, USA"
Lamar University,1,30.0415251,-94.0754905,ChIJy2sEtXjKPoYRH9n_xPzmC6E,"4400 S M L King Jr Pkwy, Beaumont, TX 77705, USA"
Lehigh University,1,40.6054003,-75.3771764,ChIJ5WpcfWc-xIkRILNvZO3psF0,"27 Memorial Dr W, Bethlehem, PA 18015, USA"
Liberty University,21,37.3520604,-79.1753844,ChIJEdnwoIrasokRDs8syoKHVTA,"1971 University Blvd, Lynchburg, VA 24515, USA"
Liberty University School of Law,1,37.3586997,-79.1754231,ChIJpdymUvXasokRAyhD9w2Q6B4,"1971 University Blvd, Lynchburg, VA 24502, USA"
Libery University,1,37.3520604,-79.1753844,ChIJEdnwoIrasokRDs8syoKHVTA,"1971 University Blvd, Lynchburg, VA 24515, USA"
Life University,1,33.9315424,-84.5174522,ChIJM8SlEVIR9YgRQ2e5PXLdWC4,"1269 Barclay Cir, Marietta, GA 30060, USA"
Lindenwood University,1,38.7857311,-90.50220540000001,ChIJ720L4hkv34cRuLEdnLM1s0Y,"209 S Kingshighway St, St Charles, MO 63301, USA"
Lipscomb University,1,36.1046846,-86.7988728,ChIJqSw3Qk9kZIgRUwjsDcF0vEA,"1 University Park Dr, Nashville, TN 37204, USA"
Loma Linda University,1,34.0504232,-117.2641366,ChIJg7o124er3IAR9IvA-2daeLw,"11175 Campus St, Loma Linda, CA 92354, USA"
Louisiana State University,4,30.4102406,-91.18570590000002,ChIJoxwOeCOnJoYRU1QUYy4fss0,"1146, Pleasant Hall, Baton Rouge, LA 70802, USA"
Louisiana Tech University,1,32.5299582,-92.6522174,ChIJfYq7DHPFMYYRxPINyUGUuMQ,"201 Mayfield Ave, Ruston, LA 71272, USA"
Loyola University Chicago,2,41.9983568,-87.6569374,ChIJ_8UzkArRD4gRTH5hbofNE-Y,"1032 W Sheridan Rd, Chicago, IL 60660, USA"
Loyola University New Orleans,1,29.9345703,-90.12154170000001,ChIJ5ekdwwSlIIYR73iF5HYIg0w,"6363 St Charles Ave, New Orleans, LA 70118, USA"
Lynn University,2,26.384195,-80.1250005,ChIJOT48CGoe2YgR7EvaUiPtY60,"3601 N Military Trl, Boca Raton, FL 33431, USA"
Maria Curie Sklodowska University,1,51.2455041,22.5408742,ChIJCxKWr2NXIkcRYECcap5lmJQ,"WYDZIAŁ PRAWA, ul. Marii Curie-Skłodowskiej 5, 20-031 Lublin, Poland"
Marquette University,6,43.0386955,-87.93101399999999,ChIJWwzA14EZBYgRCxLMKlhRvVU,"1250 W Wisconsin Ave, Milwaukee, WI 53233, USA"
Marshall University,1,38.4236597,-82.42471979999999,ChIJp7yzRzEIRogR9i7Uhy_x0O4,"1 John Marshall Dr, Huntington, WV 25755, USA"
Maryland University of Integrative Health,3,39.1658751,-76.8880231,ChIJHXCrD5ret4kRgkUU-FuA3rY,"7750 Montpelier Rd, Laurel, MD 20723, USA"
Marymount University,1,38.9051975,-77.1277085,ChIJH_DSs821t4kRkgVanNs9mTw,"2807 N Glebe Rd, Arlington, VA 22207, USA"
Maryville University,1,38.6461821,-90.5036535,ChIJW_rJGq3U2IcRBhYQFm1C85c,"650 Maryville University Dr, St. Louis, MO 63141, USA"
Medical University of South Carolina,1,32.7834496,-79.94602619999999,ChIJ__9PAz96_ogRzewH47KbUE0,"268 Calhoun St, Charleston, SC 29425, USA"
Michigan State University,1,42.7250725,-84.47908269999999,ChIJY42I2lnCIogRPzuqBauYmG4,"East Lansing, MI, USA"
Michigan Technological University,3,47.1167589,-88.54601149999999,ChIJgXWA0hDIUE0R1RrWV5TK14A,"1400 Townsend Dr, Houghton, MI 49931, USA"
Middle Tennessee State University,2,35.8486229,-86.36691549999999,ChIJpcKjWZf4Y4gRstWs3B7286s,"1301 E Main St, Murfreesboro, TN 37132, USA"
Middlebury College,1,44.0081076,-73.1760412,ChIJj7_gV_5ctUwRuyfdhq0Zg-k,"14 Old Chapel Rd, Middlebury, VT 05753, USA"
Miles Law School,1,33.4808312,-86.9082778,ChIJof2rdvvhiIgRtkLWt5pDY5I,"Taggert Science Center, 5500 Myron Massey Blvd, Fairfield, AL 35064, USA"
Minnesota School of Business,1,44.9454558,-92.9421043,ChIJq6qqhfTX94cRgJa1DPpc9fQ,"8089 Globe Dr, Woodbury, MN 55125, USA"
Minnesota State University Mankato,1,44.1451163,-93.99699009999999,ChIJ4_-wYIM59IcRQQqSw4vz4Mg,"Minnesota State University, Mankato, 228, Wiecking Center, Mankato, MN 56001, USA"
Mississippi State University,2,33.4576975,-88.7941585,ChIJqwF75D41gYgRK3IANU9C8Xs,"75 B. S. Hood Rd, Mississippi State, MS 39762, USA"
Monmouth University,1,40.2802758,-74.0054114,ChIJyV792qElwokRyd-tH-RZ1FY,"400 Cedar Ave, West Long Branch, NJ 07764, USA"
Montana State University,3,45.6673524,-111.0546211,ChIJ8xcP1Q5FRVMR0ZG9AE5d_tQ,"100, Culbertson Hall, Bozeman, MT 59717, USA"
Morehouse School of Medicine,1,33.7432604,-84.41208089999999,ChIJjX71VWkD9YgRdszDwTFuJhY,"720 Westview Dr SW, Atlanta, GA 30310, USA"
Murray State University,2,36.616251,-88.3209372,ChIJwUHIHaFSeogRzGYQEfkYj2w,"1375 Chestnut St, Murray, KY 42071, USA"
Naval Postgraduate School,1,36.5968995,-121.8741343,ChIJN4spWOUAjoARx4txF4H-cgk,"1 University Circle, Monterey, CA 93943, USA"
New Jersey City University,1,40.709657,-74.0876226,ChIJZRucWxhRwokROOEC9rJ5LaI,"2039 John F. Kennedy Blvd, Jersey City, NJ 07305, USA"
New Jersey Institute of Technology,1,40.7424259,-74.1784006,ChIJ-ZbDmH1TwokRQ1_5LnoofLk,"323 Dr Martin Luther King Jr Blvd, Newark, NJ 07102, USA"
New York Institute of Technology,1,40.8080876,-73.6032926,ChIJJQlaioiGwokRNo0nI26Odmo,"Northern Boulevard, Valentines Ln, Old Westbury, NY 11568, USA"
New York University,2,40.72951339999999,-73.9964609,ChIJwZVT9ZpZwokRBfO1cTF0MNo,"New York, NY 10012, USA"
North Carolina A&T State University,1,36.0770034,-79.7718199,ChIJRQt4BcwYU4gR3o2uhA1QQL4,"1601 E Market St, Greensboro, NC 27411, USA"
North Carolina State University,3,35.7850744,-78.6812824,ChIJOXnA46L1rIkRUXe2ZJ3s8jA,"Raleigh, NC 27695, USA"
North Central University,2,44.9688111,-93.2618835,ChIJbbbF8qAys1IRI83XHfbpVVE,"910 Elliot Ave, Minneapolis, MN 55404, USA"
NorthCentral University,2,33.6413879,-111.8931655,ChIJodEAWNd1K4cR7x0iVpNV7kY,"8667 E Hartford Dr #100, Scottsdale, AZ 85255, USA"
Northcentral University,34,33.6413879,-111.8931655,ChIJodEAWNd1K4cR7x0iVpNV7kY,"8667 E Hartford Dr #100, Scottsdale, AZ 85255, USA"
Northeastern University,2,42.3398067,-71.0891717,ChIJ4VzPmRl644kRjLkiZeYAe8k,"360 Huntington Ave, Boston, MA 02115, USA"
Northern Arizona University,2,35.1802684,-111.6540336,ChIJ3SD_ZGWPLYcR6VtWfrhi5Us,"S San Francisco St, Flagstaff, AZ 86011, USA"
Northern Illinois University,3,41.934194,-88.77387829999999,ChIJp3xwUMEqD4gRAHwPGX3v3zs,"Barsema Alumni and Visitors Center, 231 N Annie Glidden Rd, DeKalb, IL 60115, USA"
Northern Kentucky University,2,39.0312035,-84.4625345,ChIJ6RaLC26wQYgRVJT24LyA4j4,"1 Louie B Nunn Dr, Highland Heights, KY 41099, USA"
Northwest Nazarene University,2,43.5614966,-116.5656946,ChIJHx8UlgdMrlQRURjYB0_QbG4,"623 S University Blvd, Nampa, ID 83686, USA"
Nottingham Trent University,1,52.9581371,-1.1542327,ChIJc2tucz_CeUgRUNjDIE-SFTc,"50 Shakespeare St, Nottingham NG1 4FQ, UK"
Nova Southeastern,1,26.0786011,-80.2457075,ChIJP64CCSWo2YgRtpDSAVz346g,"3300 S University Dr, Fort Lauderdale, FL 33328, USA"
Nova Southeastern University,21,26.0786011,-80.2457075,ChIJP64CCSWo2YgRtpDSAVz346g,"3300 S University Dr, Fort Lauderdale, FL 33328, USA"
Oakland University,1,42.6678782,-83.20823469999999,ChIJP1-JSpLqJIgRmUDBbbDvlOk,"201 Meadow Brook Rd, Rochester, MI 48309, USA"
Ohio Northern University,1,40.7656634,-83.83284789999999,ChIJmde4EjvHPogRW2FFb6oj2ro,"525 S Main St, Ada, OH 45810, USA"
Ohio State University,5,40.0060889,-83.0282624,ChIJs6fo3Y-OOIgRj4dWIQjYLKs,"281 W Lane Ave, Columbus, OH 43210, USA"
Ohio University,6,39.324358,-82.10138889999999,ChIJswiEvrhzSIgR9udJdKNks2s,"Athens, OH 45701, USA"
Oklahoma State University,3,36.126572,-97.07348209999999,ChIJ_3VGkxYKsYcRbAtJw-3gjiQ,"Stillwater, OK, USA"
Old Dominion University,3,36.8853217,-76.3058786,ChIJRTm6JK2ZuokRrEtOLEPcK80,"5115 Hampton Blvd, Norfolk, VA 23529, USA"
Oregon State University,2,44.5618097,-123.2822671,ChIJQ7tQ6rlAwFQRn7T3Adzx_6Y,"1500 SW Jefferson Way, Corvallis, OR 97331, USA"
Otterbein University,1,40.1268746,-82.9371852,ChIJMVjn7Q_1OIgRAq0U2aBnM7E,"1 S Grove St, Westerville, OH 43081, USA"
Our Lady of the Lake University,1,29.4262763,-98.5434121,ChIJxVszOcxeXIYRyCRk93Ag7bc,"411 SW 24th St, San Antonio, TX 78207, USA"
Pace University,3,40.7112562,-74.0051758,ChIJR7SnMP5YwokRHx_9pfBVCoo,"One Pace Plaza, New York, NY 10038, USA"
Pace University School of Law,1,41.0395657,-73.76580969999999,ChIJtTlsQTSUwokRdMEfmmvzpTQ,"78 N Broadway, White Plains, NY 10603, USA"
Penn State University,1,40.7982133,-77.8599084,ChIJkQJdfySmzokRaYLkVpuOPq0,"201 Old Main, University Park, PA 16802, USA"
Pepperdine University,1,34.0415037,-118.709596,ChIJp1Mqvq8f6IARk9BdNpkiaO4,"24255 Pacific Coast Hwy, Malibu, CA 90263, USA"
Peru State College,1,40.4747647,-95.7321485,ChIJPaB7ae93lIcR2gDSE2_k7TA,"600 Hoyt St, Peru, NE 68421, USA"
PhD Capella University,1,44.976168,-93.26858089999999,ChIJC8ureJkys1IRbSZTl261_XY,"225 South 6th St, Minneapolis, MN 55402, USA"
Phoenix University,1,33.4113576,-112.0128352,ChIJLXqzSDgPK4cRpGaQ4KXbIrU,"4025 S Riverpoint Pkwy, Phoenix, AZ 85040, USA"
Portland State University,1,45.5111153,-122.6833385,ChIJkbAL-LGglVQRlTfmyWPTDjY,"1825 SW Broadway, Portland, OR 97201, USA"
Post University,2,41.5356957,-73.0815739,ChIJNU5yo-TB54kRVwi-iJaiGvA,"800 Country Club Rd, Waterbury, CT 06708, USA"
Purdue University,7,40.4237054,-86.92119459999999,ChIJBwU-Qjf9EogRjnwai8-yzI4,"610 Purdue Mall, West Lafayette, IN 47907, USA"
Purdue University Northwest,1,41.58084179999999,-87.4723763,ChIJMbkEUhHeEYgRN2kVcuCgh3s,"2200 169th St, Hammond, IN 46323, USA"
Quinnipiac University School of Law,1,41.4140733,-72.8336345,ChIJVQxXEf7P54kRA5g686NmlGU,"370 Bassett Rd, North Haven, CT 06473, USA"
Radford University,1,37.1382597,-80.5506161,ChIJP8lryYbuTYgRpXZ65EIKWQI,"801 E Main St, Radford, VA 24142, USA"
Regent University,7,36.8007899,-76.1928949,ChIJuQdWVcS9uokRnyQCr7DpjQc,"1000 Regent University Dr, Virginia Beach, VA 23464, USA"
Regis College,2,42.3510169,-71.3090972,ChIJlb8kt2aE44kRsEP24haFUfY,"235 Wellesley St, Weston, MA 02493, USA"
Regis University,1,39.7896087,-105.0302396,ChIJn4Xi_4mHa4cRMLmWCFl31Ao,"3333 Regis Blvd, Denver, CO 80221, USA"
Robert Morris University,1,40.5213461,-80.2127179,ChIJZ3giR75dNIgRRR4QRW_n17w,"6001 University Blvd, Moon Township, PA 15108, USA"
Rowan University,1,39.7099689,-75.1191932,ChIJFUBWdKjXxokRC7d5RH8CE1M,"201 Mullica Hill Rd, Glassboro, NJ 08028, USA"
Rush University,3,41.8734416,-87.6689797,ChIJaTrblhctDogRgv1MAUKdlG8,"1653 W Congress Pkwy #12, Chicago, IL 60612, USA"
Rutgers University,2,40.5017645,-74.44793419999999,ChIJfXAlvlTGw4kRhCHenlbrp8Y,"New Brunswick, NJ 08901, USA"
SANS Technology Institute,1,39.040754,-77.11080679999999,ChIJDxA9US_Nt4kRHa13KZdiHvM,"11200 Rockville Pike, Rockville, MD 20852, USA"
SUNY at Albany,3,42.6778439,-73.8266975,ChIJ2Tze8iYL3okRksr9kOJZxjs,"Suny at Albany, Guilderland, NY 12203, USA"
Saint Louis University,3,38.6358876,-90.23412309999999,ChIJZ6TnUqO02IcRJU0u1KVX9lk,"1 N Grand Blvd, St. Louis, MO 63103, USA"
Sam Houston State University,1,30.7151799,-95.5466174,ChIJTZS8s5cIR4YRfObmAxdML6g,"1905 University Ave, Huntsville, TX 77340, USA"
Samford University,8,33.4649218,-86.7913423,ChIJqeh3QA0ZiYgRPyFwN--p8Hs,"800 Lakeshore Dr, Homewood, AL 35229, USA"
San Jose State University,1,37.3351874,-121.8810715,ChIJ1UPeZLjMj4ARDjQ3GXL-fzk,"1 Washington Sq, San Jose, CA 95192, USA"
Saybrook University,2,34.1530332,-118.1521321,ChIJ516Vv1-AhYARG_d6vKBwCAU,"55 W Eureka St, Pasadena, CA 91103, USA"
Seton Hall University,2,40.7430841,-74.246082,ChIJy9Q41qGsw4kR57OBAyFV688,"400 S Orange Ave, South Orange Village, NJ 07079, USA"
Shri JJT University,1,28.176763,75.2455438,ChIJy5Rn5thDEzkRBjpaRHotR7M,"56GW+P63, Churu Road, Vidyanagari, Churela, Rajasthan 333010, India"
South Dakota Sate University,1,44.3191071,-96.78351819999999,ChIJ6dYH3_qiiYcRq09jmNaa46c,"1015 Campanile Ave, Brookings, SD 57007, USA"
South Dakota State University,1,44.3191071,-96.78351819999999,ChIJ6dYH3_qiiYcRq09jmNaa46c,"1015 Campanile Ave, Brookings, SD 57007, USA"
Southeastern University,2,28.0302029,-81.91796819999999,ChIJJV2gVQ4_3YgRtDmOv7lZXag,"1000 Longfellow Blvd, Lakeland, FL 33801, USA"
Southern Illinois University,6,37.7079717,-89.2229983,ChIJA_wI6TwSd4gR0zAAt4nEmJY,"Carbondale, IL 62901, USA"
Southern Illinois University Carbondale,1,37.7079717,-89.2229983,ChIJA_wI6TwSd4gR0zAAt4nEmJY,"Carbondale, IL 62901, USA"
"Southern Illinois University, Carbondale",1,37.7079717,-89.2229983,ChIJA_wI6TwSd4gR0zAAt4nEmJY,"Carbondale, IL 62901, USA"
Southern Methodist University,2,32.8412178,-96.78451749999999,ChIJFU7ARwSfToYRLlSZG7jKX8A,"Dallas, TX 75205, USA"
Southern New Hampshire University,2,43.0382166,-71.4493554,ChIJLWcsGJVF4okRnlf9v_TJ-Ro,"2500 N River Rd, Manchester, NH 03106, USA"
Southern Utah University,1,37.6764461,-113.0713001,ChIJfd_0871htYAR3Ee3JYI7pOg,"351 W University Blvd, Cedar City, UT 84720, USA"
Southwest Baptist University,2,37.5996797,-93.4094896,ChIJiazXa-W_xYcR3UL_DNoTa8k,"1600 University Ave, Bolivar, MO 65613, USA"
Southwestern College,2,32.6400996,-116.9978233,ChIJn-DmMZBP2YARlqY57F9xvjU,"900 Otay Lakes Rd, Chula Vista, CA 91910, USA"
St. Cloud State University,1,45.548639,-94.1515367,ChIJ7UudNHJgtFIR-HEH3x_g7mY,"720 4th Ave S, St Cloud, MN 56301, USA"
St. John's University,1,40.7201737,-73.79789079999999,ChIJ_6jZBP1gwokRpEiUKx2iUlE,"Address, 81-98 170th St, Jamaica, NY 11432, USA"
State University of New York at Albany,1,42.6842455,-73.8261034,ChIJNcvFFTsL3okRnp6AsL_tw8c,"1400 Washington Ave, Albany, NY 12222, USA"
Stetson University College of Law,1,27.7566725,-82.7179099,ChIJfa2_Vb_iwogRzEkd0h1yTIA,"1401 61st St S, Gulfport, FL 33707, USA"
Stevens Institute of Technology,1,40.744403,-74.0251573,ChIJTWpC695ZwokRloO5qV4pt1I,"1 Castle Point Terrace, Hoboken, NJ 07030, USA"
Stevenson University,1,39.4195499,-76.7802528,ChIJf4msIK0XyIkR9AmM6zFf69M,"Owings Mills, MD, USA"
Stony Brook University,2,40.90413849999999,-73.1237618,ChIJvzh05jM_6IkRhcy9aqUcTHM,"100 Nicolls Rd, Stony Brook, NY 11794, USA"
Strayer University,2,38.8016269,-77.08012339999999,ChIJhSwampixt4kRNk-04XADNSI,"2730 Eisenhower Ave, Alexandria, VA 22314, USA"
Syracuse University,2,43.0386502,-76.1336922,ChIJVcwsup_z2YkRTQhRUgaJYF4,"900 S Crouse Ave, Syracuse, NY 13244, USA"
Teachers College Columbia University,1,40.8101571,-73.9604571,ChIJJ4M-65n3wokR3gq5wjiqQ5k,"525 W 120th St, New York, NY 10027, USA"
Temple University,1,39.9811911,-75.1553563,ChIJDzmJJf-3xokR3i50d5pyWAU,"1801 N Broad St, Philadelphia, PA 19122, USA"
Texas A&M University,3,30.6186625,-96.3364251,ChIJAQDAM_eDRoYRyDvAuaS4R5c,"400 Bizzell St, College Station, TX 77840, USA"
Texas A&M University Commerce,2,33.2406645,-95.91041489999999,ChIJMyKWwSXGS4YR5KnMJcu1zUE,"2104 University Dr, Commerce, TX 75428, USA"
Texas Southern University,1,29.7214214,-95.35926909999999,ChIJgbfmvaa_QIYRK0s_xu9br2Y,"3100 Cleburne St, Houston, TX 77004, USA"
Texas State University,1,29.888411,-97.938351,ChIJ3yStNnCoXIYRkulAp54VF3E,"601 University Dr, San Marcos, TX 78666, USA"
Texas State University - San Marcos,1,29.888411,-97.938351,ChIJ3yStNnCoXIYRkulAp54VF3E,"601 University Dr, San Marcos, TX 78666, USA"
Texas Tech University,6,33.5844949,-101.8751391,ChIJR8ge8xPEQIYRSXiwt3SzLQU,"2500 Broadway W, Lubbock, TX 79409, USA"
Texas Woman's University,3,33.2272211,-97.12705199999999,ChIJYTdn0oXKTYYRHkAILqP-ojY,"304 Administration Dr, Denton, TX 76204, USA"
The Catholic University of America,1,38.9368811,-76.99869199999999,ChIJBadQTuXHt4kR_aRJlv1GKxY,"620 Michigan Ave NE, Washington, DC 20064, USA"
The Chicago School of Professional Psychology,1,41.8881532,-87.63371020000001,ChIJDSHRKLcsDogRDnZ718cjemM,"325 N Wells St, Chicago, IL 60654, USA"
Tiffin University,1,41.1196685,-83.1872281,ChIJnUS5HyDfO4gRsOnqA0Xnwis,"155 Miami St, Tiffin, OH 44883, USA"
Touro University,2,40.7566955,-73.9866995,ChIJwxdAKhFawokRGgiuL57deDQ,"3 Times Sq, New York, NY 10036, USA"
Trevecca Nazarene University,4,36.1425256,-86.7532686,ChIJteMO2w9mZIgRk0xzIIfxGYc,"333 Murfreesboro Pike, Nashville, TN 37210, USA"
Trident University,3,33.2786939,-111.8040692,ChIJW9LRW8Qu3YARads6x3YVO8k,"2200 E Germann Rd Suite 150, Chandler, AZ 85286, USA"
Trident University International,2,33.2786939,-111.8040692,ChIJW9LRW8Qu3YARads6x3YVO8k,"2200 E Germann Rd Suite 150, Chandler, AZ 85286, USA"
Troy University,2,31.80259259999999,-85.9571615,ChIJedLZw-XsjYgRn4N17d1Yec4,"600 University Ave, Troy, AL 36082, USA"
Tulane University,2,29.9407282,-90.12031669999999,ChIJb2UqgBClIIYREpD_Sj5oEak,"6823 St Charles Ave, New Orleans, LA 70118, USA"
Union Institute and University,2,44.2549165,-72.5682107,ChIJ7XylFPintUwRDLDcNpwxa8k,"62 Ridge St, Montpelier, VT 05602, USA"
University College Cork,1,51.893486,-8.492070499999999,ChIJI8O7gCOQREgRkVJeg_BLik0,"College Rd, University College, Cork, Ireland"
University at Albany,1,42.6842455,-73.8261034,ChIJNcvFFTsL3okRnp6AsL_tw8c,"1400 Washington Ave, Albany, NY 12222, USA"
"University at Albany, State University of New York",1,42.6842455,-73.8261034,ChIJNcvFFTsL3okRnp6AsL_tw8c,"1400 Washington Ave, Albany, NY 12222, USA"
University at Buffalo,1,42.999775,-78.7870456,ChIJi5sOAc5z04kRgrciX47w2sw,"134 Jacobs Hl, Buffalo, NY 14260, USA"
University of Advancing Technology,1,33.3777502,-111.9760175,ChIJf9_C318PK4cRfTJVlC4fz9k,"2625 W Baseline Rd, Tempe, AZ 85283, USA"
University of Akron,1,41.0753688,-81.5123424,ChIJbyeM79gpMYgRnELTRngZTwU,"302 E Buchtel Ave, Akron, OH 44325, USA"
University of Alabama,8,33.2114385,-87.5401002,ChIJuyDejJkChogREgmu26spDt8,"Tuscaloosa, AL 35487, USA"
University of Alabama at Birmingham,2,33.502086,-86.8051588,ChIJRxq4YekbiYgRS7BbCPlZxlE,"1720 University Blvd, Birmingham, AL 35294, USA"
University of Arizona,6,32.2318981,-110.9535407,ChIJTZpd7qpx1oYRZs9AZMBoWIw,"1200 E University Blvd, Tucson, AZ 85721, USA"
University of Arizona Global Campus,1,33.301001,-111.8418139,ChIJv_pbJ5Bj4ocR3zbG3wAPr7M,"180 S Arizona Ave Suite #301, Chandler, AZ 85225, USA"
University of Arkansas,2,36.0686895,-94.1748471,ChIJL_bwEOZuyYcRZyN-eDv5ohA,"Fayetteville, AR 72701, USA"
University of Arkansas Little Rock,1,34.7252717,-92.3378705,ChIJL_aUdFik0ocRvB5dKX0wEsE,"2801 S University Ave, Little Rock, AR 72204, USA"
University of Baltimore School of Law,1,39.305836,-76.615878,ChIJiyIVhZUEyIkR0ilX1fppySI,"1401 N Charles St, Baltimore, MD 21201, USA"
University of Buffalo,1,43.0018111,-78.78952389999999,ChIJnwQbJtJz04kRb_XET01paCg,"190 Founders Prom, Getzville, NY 14068, USA"
University of Calcutta,1,22.5750862,88.3629188,ChIJz187Ka13AjoRPVUBrMYqw1U,"87/1, College St, Calcutta University, College Square, Kolkata, West Bengal 700073, India"
University of California,1,37.8712141,-122.255463,ChIJwdcixRh3j4ARiTJrO-o0gNo,"Berkeley, CA, USA"
University of California - Irvine,1,33.6423814,-117.8416747,ChIJkb-SJQ7e3IAR7LfattDF-3k,"Irvine, CA 92697, USA"
University of California Davis,1,38.5382322,-121.7617125,ChIJP_qJdH_T6oARNIN-CCS7v-w,"1 Shields Ave, Davis, CA 95616, USA"
University of California Irvine,2,33.6423814,-117.8416747,ChIJkb-SJQ7e3IAR7LfattDF-3k,"Irvine, CA 92697, USA"
University of California San Diego,2,32.881168,-117.2343605,ChIJT69MQcQG3IARpz6Rifyqtu8,"9500 Gilman Dr, La Jolla, CA 92093, USA"
"University of California, Irvine",1,33.6423814,-117.8416747,ChIJkb-SJQ7e3IAR7LfattDF-3k,"Irvine, CA 92697, USA"
"University of California, Los Angeles",1,34.0699182,-118.4438495,ChIJZQ9c8IW8woARN0gTXFiTqSU,"Los Angeles, CA 90095, USA"
"University of California, Santa Barbara",2,34.4139629,-119.848947,ChIJN0sx82c_6YARws62XH5rlU4,"Santa Barbara, CA 93106, USA"
University of Cambridge,1,38.7945952,-106.5348379,ChIJCzYy5IS16lQRQrfeQ5K5Oxw,United States
University of Central Florida,10,28.6024274,-81.2000599,ChIJX0kKal1o54gRq5vHs5Kb1V8,"4000 Central Florida Blvd, Orlando, FL 32816, USA"
University of Cincinnati,5,39.1329219,-84.51495039999999,ChIJJexly4qzQYgR_MXAgSe0SUI,"2600 Clifton Ave, Cincinnati, OH 45221, USA"
University of Colorado,5,40.0073499,-105.2659871,ChIJwR6cajTsa4cR2TH0qKTVKAM,"Boulder, CO 80309, USA"
University of Colorado Denver,1,39.7463596,-105.002342,ChIJ0y80fcV4bIcRlGBBOBQ0Kq4,"1201 Larimer St, Denver, CO 80204, USA"
University of Connecticut,2,41.81354150000001,-72.2452715,ChIJC-MFejmK5okR6oVsKUtvbLI,"352 Mansfield Rd, Storrs, CT 06269, USA"
University of Dallas,1,32.8462507,-96.9196041,ChIJBbyDadOCToYRhUJB-9eSsMY,"1845 E Northgate Dr, Irving, TX 75062, USA"
University of Delaware,3,39.6809151,-75.7523313,ChIJpelbVi6qx4kRceNYY0T-LsA,"210 S College Ave, Newark, DE 19716, USA"
University of Denver,2,39.6748442,-104.9652808,ChIJ6wsSaDx-bIcRKEQZYbJuSRA,"University, Denver, CO 80210, USA"
University of Fairfax,2,37.2997396,-80.0234938,ChIJNQs-ZhkMTYgR-ESorfUEBLs,"1813 E Main St, Salem, VA 24153, USA"
University of Florida,5,29.6465428,-82.3533266,ChIJdZLk-wyj6IgRhpg9FN7gbyA,"Gainesville, FL 32611, USA"
University of Georgia,3,33.9423394,-83.37242420000001,ChIJv6b7OGAT9ogRdO9Au2idhN8,"University of Georgia Chapel, Herty Dr, Athens, GA 30602, USA"
University of Hartford,2,41.7984942,-72.7138039,ChIJv3VY6jWr54kRF9vsAZnO8n4,"200 Bloomfield Ave, West Hartford, CT 06117, USA"
University of Houston,6,29.7204627,-95.34293190000001,ChIJmaG-jlq-QIYR50eCyn44nww,"4302 University Dr, Houston, TX 77004, USA"
University of Idaho,4,46.7288124,-117.0126084,ChIJ45eZeIYnoFQRbM2P2RtBZY8,"875 Perimeter Dr, Moscow, ID 83844, USA"
University of Illinois,2,40.1019523,-88.2271615,ChIJ6VUmqSTXDIgR-iZoBCUFPKU,"Champaign, IL, USA"
University of Illinois Chicago,1,41.8686034,-87.6484377,ChIJu8KXH-AsDogR3Nzbopo-A6Y,"1200 W Harrison St, Chicago, IL 60607, USA"
University of Illinois Springfield,1,39.7305338,-89.6176711,ChIJbaYhxwY8dYgR9Ur98QmTtSM,"One University Plaza, Springfield, IL 62703, USA"
University of Illinois at Chicago,5,41.8686034,-87.6484377,ChIJu8KXH-AsDogR3Nzbopo-A6Y,"1200 W Harrison St, Chicago, IL 60607, USA"
University of Illinois at Urbana-Champaign,2,40.1019523,-88.2271615,ChIJ6VUmqSTXDIgR-iZoBCUFPKU,"Champaign, IL, USA"
"University of Illinois, Urbana",1,40.1019523,-88.2271615,ChIJ6VUmqSTXDIgR-iZoBCUFPKU,"Champaign, IL, USA"
"University of Illinois, Urbana-Champaign",1,40.1019523,-88.2271615,ChIJ6VUmqSTXDIgR-iZoBCUFPKU,"Champaign, IL, USA"
University of Indianapolis,3,39.70957689999999,-86.13466919999999,ChIJIVAV5apba4gRx0uKXDFS38M,"1400 E Hanna Ave, Indianapolis, IN 46227, USA"
University of Iowa,6,41.66270780000001,-91.5549771,ChIJ__-_SfJB5IcRYTLnsT_j0Us,"Iowa City, IA 52242, USA"
University of Kansas,2,38.9543439,-95.2557961,ChIJc9ao8zJvv4cRKIIjqyFOcVM,"1450 Jayhawk Blvd, Lawrence, KS 66045, USA"
University of Kentucky,5,38.0306511,-84.5039697,ChIJZQxUxbZEQogRZ0KY7kqd_44,"Lexington, KY 40506, USA"
University of LaVerne,1,34.1002277,-117.7715774,ChIJ4b2qp00uw4ARfepBep1ZQ8E,"1950 3rd St, La Verne, CA 91750, USA"
University of Liverpool,1,53.40478239999999,-2.965299,ChIJV0GfmRkhe0gRto83aIXSpC0,"Foundation Building, Brownlow Hill, Liverpool L69 7ZX, UK"
University of Louisiana,1,30.211991,-92.019914,ChIJ9Rf3zpKcJIYRvduCalQ1hPM,"104 E University Ave, Lafayette, LA 70504, USA"
University of Louisiana Monroe,2,32.5313471,-92.068744,ChIJQ3ItlgdGLoYRZjwJ-xxiLws,"700 University Ave, Monroe, LA 71209, USA"
University of Louisiana at Lafayette,1,30.211991,-92.019914,ChIJ9Rf3zpKcJIYRvduCalQ1hPM,"104 E University Ave, Lafayette, LA 70504, USA"
University of Louisiana at Monroe,1,32.5313471,-92.068744,ChIJQ3ItlgdGLoYRZjwJ-xxiLws,"700 University Ave, Monroe, LA 71209, USA"
University of Louisville,1,38.2157954,-85.7614322,ChIJpcReaGYNaYgRU4n5sTByKDY,"2301 S 3rd St, Louisville, KY 40292, USA"
University of Maryland,2,38.9869183,-76.9425543,ChIJq6qaPr3Gt4kRmtrkpd2LjtQ,"College Park, MD 20742, USA"
University of Maryland Baltimore County,1,39.2553955,-76.7106829,ChIJy0u8mrUdyIkRPUDbqk2bEQc,"1000 Hilltop Cir, Baltimore, MD 21250, USA"
University of Maryland University College,3,38.9864552,-76.95399309999999,ChIJDZqcNo7Gt4kRHeOmxKShUiI,"3501 University Blvd E, Adelphi, MD 20783, USA"
University of Massachusetts Amherst,2,42.38655809999999,-72.5314278,ChIJZfjw5HPS5okRBY4UiWBY1qA,"300 Massachusetts Ave, Amherst, MA 01003, USA"
University of Memphis,5,35.119881,-89.93745190000001,ChIJuUWRH7GGf4gR02q9z8MFJEk,"3720 Alumni Ave, Memphis, TN 38152, USA"
University of Miami,1,25.7173947,-80.2781262,ChIJfTjGHwK42YgRzjHwQarPwDg,"1320 S Dixie Hwy, Coral Gables, FL 33146, USA"
University of Michigan,1,42.277145,-83.7382071,ChIJARfe5ziuPIgR45fpeFFOoVs,"500 S State St, Ann Arbor, MI 48109, USA"
University of Michigan Dearborn,1,42.31763429999999,-83.2320299,ChIJTwADdHQ1O4gRWHcjTefsvDc,"4901 Evergreen Rd, Dearborn, MI 48128, USA"
University of Minnesota,2,44.97399,-93.2277285,ChIJ_8cK92kts1IReJnfUqEXEuM,"Minneapolis, MN 55455, USA"
University of Minnesota - Twin Cities,1,44.9753541,-93.2330739,ChIJ9RzqMhQts1IRxoP6F31_DO0,"University of Minnesota - Twin Cities, Minneapolis, MN, USA"
University of Minnesota Duluth,2,46.8195917,-92.0831108,ChIJRQGCgSatr1IRjuusDnsdXWU,"1303 Ordean Ct, Duluth, MN 55812, USA"
University of Missouri,7,38.9403808,-92.32773750000001,ChIJOYftBZW33IcRSPsHnDIFg8E,"Columbia, MO 65211, USA"
University of Missouri - Kansas City,1,39.0333035,-94.577545,ChIJ856Hn5DvwIcRyBVAa2NC8JM,"5000 Holmes St, Kansas City, MO 64110, USA"
University of Missouri - St Louis,1,38.7092187,-90.3083223,ChIJH101H_M134cRrGJtadYdKuc,"1 University Blvd, St. Louis, MO 63121, USA"
University of Missouri St. Louis,1,38.7092187,-90.3083223,ChIJH101H_M134cRrGJtadYdKuc,"1 University Blvd, St. Louis, MO 63121, USA"
University of Montana,1,46.8619309,-113.9845969,ChIJyxWY8TPMXVMRv5rKRoVrKZw,"32 Campus Dr, Missoula, MT 59812, USA"
University of Nebraska,3,40.8201966,-96.70047629999999,ChIJvc2mUKe-locRjztC-SI8jV0,"1400 R St, Lincoln, NE 68588, USA"
University of Nebraska at Omaha,1,41.2580268,-96.010696,ChIJ-5r4wLuNk4cRT3hXWKWmvk0,"6001 Dodge St, Omaha, NE 68182, USA"
University of Nevada,1,39.5485651,-119.8156924,ChIJH9FLh9dGmYARGNb-koliheM,"1664 N Virginia St, Reno, NV 89557, USA"
University of Nevada Las Vegas,4,36.107496,-115.1435252,ChIJX-B-mQHFyIARxkJvHMEXgeM,"4505 S Maryland Pkwy, Las Vegas, NV 89154, USA"
University of New England,1,43.4582904,-70.3865402,ChIJhW93xEemskwRSnsYydkDJ0w,"11 Hills Beach Rd, Biddeford, ME 04005, USA"
University of New Hampshire,1,43.138948,-70.9370252,ChIJgW7jELyT4okRNrwKS0kIoT0,"105 Main St, Durham, NH 03824, USA"
University of New Orleans,1,30.0273134,-90.0680105,ChIJjeKZgi-pIIYR7TriS8y_I-I,"2000 Lakeshore Dr, New Orleans, LA 70148, USA"
University of North Carolina Chapel Hill,1,35.9049122,-79.0469134,ChIJ66oXy9LCrIkR4OCXZJfwO7M,"Chapel Hill, NC, USA"
University of North Carolina Greensboro,2,36.0689296,-79.8101976,ChIJl8BtURUZU4gRp5s1sVp3G6Q,"1400 Spring Garden St, Greensboro, NC 27412, USA"
University of North Carolina Wilmington,4,34.223874,-77.8696036,ChIJ3T69k_r0qYkRht53ow86K4U,"601 College Rd, Wilmington, NC 28403, USA"
University of North Carolina at Chapel Hill,2,35.9049122,-79.0469134,ChIJ66oXy9LCrIkR4OCXZJfwO7M,"Chapel Hill, NC, USA"
University of North Carolina at Charlotte,2,35.3074169,-80.73521219999999,ChIJVyOp0BocVIgR8yST8fdnP2s,"9201 University City Blvd, Charlotte, NC 28223, USA"
University of North Dakota,3,47.922891,-97.0768014,ChIJOybkamqBxlIRvjTIdOflCsw,"Grand Forks, ND 58202, USA"
University of North Florida,3,30.2661204,-81.50723140000001,ChIJU2DTHbRK5IgRUr0uDAtS8Pw,"1 UNF Dr., Jacksonville, FL 32224, USA"
University of North Texas,2,33.207488,-97.1525862,ChIJyY815HPKTYYRCmlH-kWfvQs,"1155 Union Cir, Denton, TX 76205, USA"
University of Northern Colorado,3,40.4027669,-104.700274,ChIJizSkwJqhbocRR7m-nM0r8ww,"501 W 20th St, Greeley, CO 80639, USA"
University of Notre Dame,1,41.7051917,-86.2351655,ChIJzTX8a1fNFogRt9mfZcvjK1o,"Holy Cross Dr, Notre Dame, IN 46556, USA"
University of Oklahoma,3,35.1987162,-97.4448963,ChIJu1B_5itosocRVB4EKYPPvko,"660 Parrington Oval, Norman, OK 73019, USA"
University of Phoenix,34,33.4113576,-112.0128352,ChIJLXqzSDgPK4cRpGaQ4KXbIrU,"4025 S Riverpoint Pkwy, Phoenix, AZ 85040, USA"
University of Pittsburgh,5,40.4444842,-79.9612831,ChIJH_Fa2SvyNIgRD60jDbYZ4VI,"4200 Fifth Ave, Pittsburgh, PA 15260, USA"
University of Redlands,1,34.0627062,-117.1632608,ChIJ4bbRzfJV24ARI6NJUAdlTc8,"1200 E Colton Ave, Redlands, CA 92373, USA"
University of Sarasota,1,27.3918952,-82.56282800000001,ChIJ7aqe730Vw4gRuAmSXmnkltk,"8350 N Tamiami Trl, Sarasota, FL 34243, USA"
University of South Alabama,2,30.6959406,-88.184236,ChIJyaTxdo2ym4gRJSXKvDgn710,"307 N University Blvd, Mobile, AL 36688, USA"
University of South Carolina,9,33.9937575,-81.0299186,ChIJG6ayLCi7-IgRTvV4IVRzvXg,"Columbia, SC 29208, USA"
University of South Carolina-Columbia,1,33.9937575,-81.0299186,ChIJG6ayLCi7-IgRTvV4IVRzvXg,"Columbia, SC 29208, USA"
University of South Dakota,3,42.7883015,-96.92533809999999,ChIJK45pYYlPjocRrGkM6HOVjHw,"414 E Clark St, Vermillion, SD 57069, USA"
University of South Florida,6,28.0622334,-82.4135057,ChIJ0__Gw77HwogRapBRXB509LE,"4202 E Fowler Ave, Tampa, FL 33620, USA"
University of Southern California,2,34.0223519,-118.285117,ChIJ7aVxnOTHwoARxKIntFtakKo,"Los Angeles, CA 90007, USA"
University of Southern Indiana,1,37.961764,-87.6774102,ChIJc1S25M7ScYgRzQ1gMnNAqQI,"8600 University Blvd, Evansville, IN 47712, USA"
University of Southern Mississippi,4,31.325997,-89.3320146,ChIJ11wV3pfenIgREh-jedFnSLs,"118 College Dr, Hattiesburg, MS 39406, USA"
University of St. Francis,2,41.5332096,-88.09758579999999,ChIJgYisoDFhDogRjj5Sormv5cU,"500 Wilcox St, Joliet, IL 60435, USA"
University of Stirling,1,56.146092,-3.9177579,ChIJ001rYO1iiEgRBT2mfmDCHNA,"Stirling FK9 4LA, UK"
University of Sunderland,1,54.9044161,-1.3811746,ChIJn3Pwii1hfkgRwwN_AX1unXQ,"Sunderland, UK"
University of Tampa,1,27.9468757,-82.46722659999999,ChIJ90AFeYbEwogR2VUs2R8iu0s,"401 W Kennedy Blvd, Tampa, FL 33606, USA"
University of Tennessee,7,35.9544013,-83.92945639999999,ChIJIW9KquAXXIgRTCm1SKcUSQo,"Knoxville, TN 37996, USA"
University of Tennessee Health Science Center,1,35.1408087,-90.03061609999999,ChIJ5b-gn2R-1YcRkDYdCuviBiM,"920 Madison Ave, Memphis, TN 38163, USA"
University of Texas,4,30.2850284,-97.7335226,ChIJt8-EJZu1RIYR3iFKF0_uMYE,"2515 Speedway, Austin, TX 78712, USA"
University of Texas Arlington,5,32.7292117,-97.11519709999999,ChIJTVbJq219ToYRarfIhLC-XGw,"701 S Nedderman Dr, Arlington, TX 76019, USA"
University of Texas Health Science Center,1,29.7029537,-95.4031995,ChIJrYUqx3LAQIYRaIkQm5BzMPs,"7000 Fannin St, Houston, TX 77030, USA"
University of Texas Medical Branch,1,29.3116372,-94.7775436,ChIJ8cALvzeeP4YRLPh4UfvffEU,"301 University Blvd, Galveston, TX 77555, USA"
University of Texas Rio Grande Valley,1,26.3081983,-98.17401579999999,ChIJTYynFUuiZYYRDPE5FvAb3Cw,"1201 W University Dr, Edinburg, TX 78539, USA"
University of Texas Southwestern Medical Center,1,32.8126061,-96.84225149999999,ChIJmeWIsAScToYRCxWy-DTqYy4,"5323 Harry Hines Blvd, Dallas, TX 75390, USA"
University of Texas at Arlington,1,32.7292117,-97.11519709999999,ChIJTVbJq219ToYRarfIhLC-XGw,"701 S Nedderman Dr, Arlington, TX 76019, USA"
University of Texas at Austin,1,30.2850284,-97.7335226,ChIJt8-EJZu1RIYR3iFKF0_uMYE,"2515 Speedway, Austin, TX 78712, USA"
University of Texas at El Paso,1,31.7731979,-106.5047208,ChIJ12KA7lpY54YRvOw3ZC-V-tE,"500 W University Ave, El Paso, TX 79968, USA"
University of Texas at San Antonio,2,29.5830733,-98.61987789999999,ChIJ3X9l1n1mXIYRDCc6PJBc5SQ,"1 UTSA Circle, San Antonio, TX 78249, USA"
University of Texas at Tyler,1,32.3150044,-95.2519974,ChIJmZM_6BfNSYYR1m-VIakoq7A,"3900 University Blvd, Tyler, TX 75799, USA"
University of Toledo,2,41.6578804,-83.6142374,ChIJn6btdMp4PIgRdbWVrQ87x_k,"2801 Bancroft St, Toledo, OH 43606, USA"
University of Tulsa,4,36.1520526,-95.94607529999999,ChIJM0KAdPzstocRBZORqOFl9K0,"800 S Tucker Dr, Tulsa, OK 74104, USA"
University of Utah,10,40.7649368,-111.8421021,ChIJG_NN6OpfUocRbgk63tD8lN0,"201 Presidents' Cir, Salt Lake City, UT 84112, USA"
University of Virginia,3,38.0335529,-78.5079772,ChIJ3cRJt0iGs4kRRliLzMIIUUA,"Charlottesville, VA, USA"
University of Washington,4,47.65671709999999,-122.3066181,ChIJ6zWFnZIUkFQRoyu4AXksdGs,"1410 NE Campus Pkwy, Seattle, WA 98195, USA"
University of West Georgia,1,33.575346,-85.1041219,ChIJj3iY6Xwvi4gR9xCBgyuwiYg,"1601 Maple St, Carrollton, GA 30118, USA"
University of Wisconsin,2,43.07551429999999,-89.4154526,ChIJHUh_CpWsB4gRZDpzkeBl4Mk,"500 Lincoln Dr, Madison, WI 53706, USA"
University of Wisconsin Milwaukee,2,43.078263,-87.8819686,ChIJjVDD1DIfBYgRobAZVgpkl5Q,"3203 N Downer Ave, Milwaukee, WI 53211, USA"
University of Wisconsin-Madison,1,43.07551429999999,-89.4154526,ChIJHUh_CpWsB4gRZDpzkeBl4Mk,"500 Lincoln Dr, Madison, WI 53706, USA"
University of Wisconsin-Milwaukee,1,43.078263,-87.8819686,ChIJjVDD1DIfBYgRobAZVgpkl5Q,"3203 N Downer Ave, Milwaukee, WI 53211, USA"
University of the Cumberlands,4,36.7367315,-84.1635877,ChIJU6cE7pfmXIgReaqyI0DDIWI,"6178 College Station Drive, Williamsburg, KY 40769, USA"
University of the District of Columbia,1,38.9446796,-77.06562939999999,ChIJVU_AKM_Jt4kRjiZH9N_eGiw,"4200 Connecticut Ave NW, Washington, DC 20008, USA"
Utah State University,2,41.745161,-111.8097425,ChIJ7Uuo731-VIcRHL1k1uZNQPw,"Old Main Hill, Logan, UT 84322, USA"
Valdosta State University,1,30.8491088,-83.2892073,ChIJaRTtXyBn7ogRnHzHxChmlS8,"1500 N Patterson St, Valdosta, GA 31698, USA"
Vanderbilt University,1,36.1447034,-86.8026551,ChIJR4DvpqRmZIgR1hU5F1UUUeo,"2201 West End Ave, Nashville, TN 37235, USA"
Vanderbuilt University,1,36.1447034,-86.8026551,ChIJR4DvpqRmZIgR1hU5F1UUUeo,"2201 West End Ave, Nashville, TN 37235, USA"
Villanova University,1,40.0368926,-75.3425785,ChIJDQ3h4FiVxokRTNPv3loGnqU,"800 Lancaster Ave, Villanova, PA 19085, USA"
Virginia Commonwealth University,1,37.5469205,-77.45416449999999,ChIJ_3Le1yMRsYkRyBAUiaYRWBc,"Richmond, VA 23284, USA"
Virginia Tech,4,37.22838429999999,-80.42341669999999,ChIJeZdL8BGVTYgR1ioWxRtS_ww,"Blacksburg, VA 24061, USA"
Virginia University of Lynchburg,4,37.3952224,-79.1515702,ChIJC48kNX7ZsokRPUwfADaIrcA,"2058 Garfield Ave, Lynchburg, VA 24501, USA"
Walden University,39,44.9812405,-93.2658063,ChIJi-2otpwys1IRFhENNRPWlUY,"100 Washington Square, 100 Washington Ave S Suite 1210, Minneapolis, MN 55401, USA"
Washington State University,3,46.7288927,-117.1468351,ChIJG2ipExyHn1QRTlIUZ65HEtw,"2425 Grimes Way, Pullman, WA 99164, USA"
Wayne State University,2,42.3591388,-83.06654619999999,ChIJQ9hCnbzSJIgRTl7fSYmWiLY,"42 W Warren Ave, Detroit, MI 48202, USA"
Webster University,3,38.5893479,-90.3439695,ChIJl_5ZzsnL2IcRjuMjqtcOnc0,"470 E Lockwood Ave, Webster Groves, MO 63119, USA"
West Virginia University,3,39.6480359,-79.9697147,ChIJ7dQgR3x7NYgRMNj61lX1ck0,"Morgantown, WV 26506, USA"
Western Carolina University,1,35.3090108,-83.1863612,ChIJ61tBzBQUWYgRepd-FOC9Nj4,"1 University Dr, Cullowhee, NC 28723, USA"
Western Governors University,70,40.6847421,-111.8698951,ChIJBVZvCm6KUocRoh4bYfH-h2M,"4001 S 700 E #300, Millcreek, UT 84107, USA"
Western Michigan University,1,42.2837337,-85.6102506,ChIJrScPrtt3F4gRW2PquYYXfME,"1903 W Michigan Ave, Kalamazoo, MI 49008, USA"
Western Washington University,1,48.7342877,-122.4866102,ChIJzRXJTMqjhVQRwPK6TN4mSag,"516 High St, Bellingham, WA 98225, USA"
Westminster College,3,41.119859,-80.332286,ChIJXc0-Y9KWM4gRTFs4HH5AwZk,"319 S Market St, New Wilmington, PA 16172, USA"
Wichita State University,1,37.7190782,-97.29152599999999,ChIJSYDXm-niuocR-2Sr9ilwbx4,"1845 Fairmount St, Wichita, KS 67260, USA"
Widener University,3,39.8615555,-75.3576496,ChIJfQxuOgjoxokRAu4ODIH1-_s,"One University Pl, Chester, PA 19013, USA"
Willamette University,1,44.9352335,-123.0307101,ChIJ8-6XLxX_v1QRA-zL7K58l0E,"900 State St, Salem, OR 97301, USA"
William Carey University,2,31.3039491,-89.2923028,ChIJXTu7zqzdnIgRPYlRnoaPklc,"710 William Carey Pkwy, Hattiesburg, MS 39401, USA"
William Howard Taft Univeristy,1,39.6924639,-104.9410049,ChIJvUTDoyx8bIcR2VN_koTkg1s,"1325 S Colorado Blvd Suite B-404, Denver, CO 80222, USA"
William Howard Taft University,1,39.6924639,-104.9410049,ChIJvUTDoyx8bIcR2VN_koTkg1s,"1325 S Colorado Blvd Suite B-404, Denver, CO 80222, USA"
William Woods University,1,38.86045379999999,-91.9490745,ChIJe3rmNBRZ24cR8K7-WYSF5yc,"1 University Ave, Fulton, MO 65251, USA"
Wilmington University,2,39.6820414,-75.5864299,ChIJ1QxWSLADx4kRdXNjTz_d6d4,"320 N Dupont Hwy, New Castle, DE 19720, USA"
Yildiz Technical University,1,41.0520861,29.0106553,ChIJayli1q-3yhQRN8TakoQIjIM,"Yıldız, Barbaros Blv., 34349 Beşiktaş/İstanbul, Türkiye"
